City_ID,City,Lat,Lng,Max Temp,Humidity,Cloudiness,Wind Speed,Country,Date
0,sinabang,2.4803,96.3801,26.66,80,68,0.52,ID,1707258488
1,port mathurin,-19.6833,63.4167,26.86,71,61,7.67,MU,1707258488
2,waitangi,-43.9535,-176.5597,19.34,89,98,2.68,NZ,1707258489
3,coahuayana de hidalgo,18.7,-103.6583,29.99,55,2,3.18,MX,1707258489
4,settat,33.0007,-7.6204,11.9,74,0,3.16,MA,1707258489
5,papatowai,-46.5619,169.4708,14.6,67,69,5.03,NZ,1707258489
6,saldanha,-33.0117,17.9442,19.03,94,18,3.49,ZA,1707258291
7,grytviken,-54.2811,-36.5092,9.3,61,5,2.1,GS,1707258490
8,kudahuvadhoo,2.6708,72.8944,27.48,81,87,5.26,MV,1707258490
9,tolanaro,-25.0319,46.9987,23.04,94,75,7.2,MG,1707258302
10,at taj,24.2049,23.2857,11.6,38,32,3.86,LY,1707258490
11,victoria,22.2855,114.1577,18.57,91,100,4.92,HK,1707258354
12,hermanus,-34.4187,19.2345,18.78,79,36,7.01,ZA,1707258490
13,fort dodge,42.4975,-94.168,12.0,50,0,3.09,US,1707258491
14,castillos,-34.1667,-53.8333,22.4,69,0,6.37,UY,1707258491
15,hamilton,39.1834,-84.5333,9.99,54,0,2.57,US,1707258255
16,calimanesti,45.2333,24.3333,8.39,60,80,2.42,RO,1707258492
17,tarauaca,-8.1614,-70.7656,26.81,93,47,0.36,BR,1707258492
18,ushuaia,-54.8,-68.3,17.81,39,0,2.06,AR,1707258262
19,selfoss,63.9331,-20.9971,-8.5,88,90,2.53,IS,1707258493
20,avarua,-21.2078,-159.775,30.03,79,75,6.69,CK,1707258278
21,antsiranana,-12.2787,49.2917,23.79,98,100,0.76,MG,1707258385
22,college,64.8569,-147.8028,-9.56,78,40,2.06,US,1707258281
23,utrik,11.2278,169.8474,26.5,80,100,7.52,MH,1707258268
24,tura,25.5198,90.2201,12.89,95,0,1.13,IN,1707258288
25,carnarvon,-24.8667,113.6333,28.55,43,5,6.83,AU,1707258276
26,lazaro cardenas,17.9583,-102.2,28.31,61,5,3.79,MX,1707258494
27,orlov,58.5395,48.8917,-13.19,95,100,4.24,RU,1707258495
28,vilyuchinsk,52.9306,158.4028,-9.85,88,100,2.45,RU,1707258293
29,bella vista,36.4295,-94.2316,18.12,28,0,2.06,US,1707258492
30,kodiak,57.79,-152.4072,2.73,65,0,4.12,US,1707258251
31,port-aux-francais,-49.35,70.2167,5.99,93,100,10.47,TF,1707258497
32,blackmans bay,-43.0167,147.3167,16.07,60,98,0.45,AU,1707258266
33,tommot,58.9564,126.2925,-11.15,95,100,3.18,RU,1707258497
34,kapuskasing,49.4169,-82.4331,3.05,93,100,4.12,CA,1707258310
35,olonkinbyen,70.9221,-8.7187,-2.18,90,45,9.89,SJ,1707258311
36,lepsy,46.235,78.9456,-10.3,87,98,2.11,KZ,1707258498
37,bilibino,68.0546,166.4372,-36.29,100,100,0.62,RU,1707258277
38,muravlenko,63.7898,74.523,-8.26,97,99,3.32,RU,1707258499
39,santa cruz,-17.8,-63.1667,32.03,55,40,6.69,BO,1707258442
40,argo,37.6333,22.7333,11.55,49,0,2.06,GR,1707258499
41,ngaoundere,7.3167,13.5833,19.71,23,100,2.03,CM,1707258499
42,talnakh,69.4865,88.3972,-21.89,86,100,3.39,RU,1707258274
43,hithadhoo,-0.6,73.0833,28.21,75,55,2.51,MV,1707258272
44,wailua homesteads,22.0669,-159.378,25.44,68,20,9.77,US,1707258324
45,mugia,43.1041,-9.2179,13.84,91,100,9.19,ES,1707258500
46,rongelap,11.1635,166.8941,26.6,80,99,6.06,MH,1707258306
47,masterton,-40.9597,175.6575,24.5,30,9,3.61,NZ,1707258500
48,edinburgh of the seven seas,-37.0676,-12.3116,17.17,66,54,2.78,SH,1707258501
49,veraval,20.9,70.3667,21.59,61,12,5.3,IN,1707258501
50,palasa,18.7667,84.4167,22.09,84,0,2.33,IN,1707258501
51,haiku-pauwela,20.9219,-156.3051,25.01,67,20,10.29,US,1707258308
52,siwa oasis,29.2041,25.5195,14.72,54,0,2.5,EG,1707258501
53,pirallahi,40.4723,50.333,5.08,53,100,3.17,AZ,1707258502
54,sitka,57.0531,-135.33,2.94,87,0,2.57,US,1707258039
55,puerto natales,-51.7236,-72.4875,15.91,55,96,1.64,CL,1707258266
56,hammerfest,70.6634,23.6821,-7.75,79,75,1.03,NO,1707258295
57,parnu,58.3859,24.4971,-3.95,74,100,4.63,EE,1707258502
58,margaret river,-33.95,115.0667,16.52,64,0,5.08,AU,1707258330
59,palmerston north,-40.35,175.6167,24.47,75,23,2.68,NZ,1707258502
60,nadi,-17.8,177.4167,30.0,70,75,3.6,FJ,1707258503
61,sur,22.5667,59.5289,21.8,61,100,1.41,OM,1707258503
62,isafjordur,66.0755,-23.124,-3.17,87,100,8.88,IS,1707258275
63,pisco,-13.7,-76.2167,28.03,65,0,9.26,PE,1707258282
64,lorengau,-2.0226,147.2712,27.78,82,100,6.45,PG,1707258346
65,tepecoacuilco de trujano,18.3,-99.4833,34.77,13,0,1.78,MX,1707258503
66,ikryanoye,46.0932,47.7308,1.66,70,13,7.08,RU,1707258504
67,keflavik,64.0049,-22.5624,-2.76,80,20,10.29,IS,1707258276
68,bethel,41.3712,-73.414,3.83,56,19,0.45,US,1707258263
69,west island,-12.1568,96.8225,26.99,83,75,3.6,CC,1707258272
70,arauca,7.0847,-70.7591,30.98,62,20,2.06,CO,1707258505
71,alice springs,-23.7,133.8833,22.34,71,91,6.17,AU,1707258162
72,zhezqazghan,47.7833,67.7667,2.25,80,100,9.49,KZ,1707258506
73,qaqortoq,60.7167,-46.0333,-16.31,63,0,3.92,GL,1707258296
74,marion,39.7684,-86.1555,8.18,61,40,2.06,US,1707258507
75,qui nhon,13.7667,109.2333,22.69,90,6,1.47,VN,1707258507
76,chonchi,-42.6128,-73.8092,20.18,74,98,5.44,CL,1707258352
77,uturoa,-16.7333,-151.4333,27.08,92,100,10.75,PF,1707258361
78,vernal,40.4555,-109.5287,5.84,66,100,1.54,US,1707258284
79,badger,64.8,-147.5333,-9.61,79,20,2.06,US,1707258266
80,bayramaly,37.6185,62.1671,8.86,41,100,3.86,TM,1707258508
81,minas de marcona,-15.2119,-75.1103,21.26,82,86,4.95,PE,1707258323
82,georgetown,5.4112,100.3354,26.96,89,20,3.09,MY,1707258016
83,remire-montjoly,4.9167,-52.2667,26.02,94,75,0.51,GF,1707258275
84,ola,59.5833,151.2833,-23.55,85,97,4.1,RU,1707258335
85,chimore,-16.9833,-65.1333,28.81,69,65,0.5,BO,1707258509
86,acajutla,13.5928,-89.8275,30.31,40,0,1.2,SV,1707258510
87,adamstown,-25.066,-130.1015,25.01,81,48,3.17,PN,1707258267
88,tonj,7.2737,28.6822,25.2,21,5,2.16,SS,1707258511
89,bratsk,56.1325,101.6142,-12.73,99,80,1.34,RU,1707258512
90,cidreira,-30.1811,-50.2056,23.87,85,100,5.93,BR,1707258512
91,dwarka,22.2394,68.9678,22.28,78,70,5.42,IN,1707258334
92,puerto ayora,-0.7393,-90.3518,27.98,79,69,4.82,EC,1707258283
93,kone,-21.0595,164.8658,26.72,83,100,2.25,NC,1707258097
94,kapa'a,22.0752,-159.319,26.18,67,20,9.77,US,1707258277
95,torghay,49.6339,63.4981,0.44,98,100,8.65,KZ,1707258513
96,saint-jean,45.2727,-66.0677,-1.0,86,40,6.17,CA,1707258239
97,mount isa,-20.7333,139.5,27.87,61,100,7.72,AU,1707258301
98,thompson,55.7435,-97.8558,-16.91,66,75,3.6,CA,1707258290
99,tazovsky,67.4667,78.7,-15.91,98,95,3.79,RU,1707258286
100,besisahar,28.2313,84.3761,11.24,28,12,3.77,NP,1707258516
101,nishon tumani,38.694,65.6751,14.14,30,20,8.23,UZ,1707258516
102,dudinka,69.4058,86.1778,-19.62,87,100,3.58,RU,1707258333
103,meadow lake,34.8014,-106.5436,14.16,33,100,2.43,US,1707258517
104,petropavlovsk-kamchatsky,53.0452,158.6483,-10.67,86,75,3.0,RU,1707258321
105,aasiaat,68.7098,-52.8699,-15.57,80,100,5.68,GL,1707258277
106,hirara,24.8,125.2833,18.15,82,100,1.54,JP,1707258517
107,khandyga,62.6667,135.6,-40.97,99,99,1.02,RU,1707258354
108,porkhov,57.765,29.5561,-8.94,96,99,2.22,RU,1707258518
109,pemba,-12.974,40.5178,28.39,94,40,4.63,MZ,1707258518
110,ribeira grande,38.5167,-28.7,17.65,94,100,11.62,PT,1707258268
111,yellowknife,62.456,-114.3525,-16.99,78,100,6.71,CA,1707258100
112,sotik post,-0.7813,35.3416,12.38,72,77,1.32,KE,1707258519
113,floro,61.5996,5.0328,-1.02,55,100,4.12,NO,1707258519
114,lompoc,34.6391,-120.4579,15.34,63,100,7.2,US,1707258283
115,maraba,-5.3686,-49.1178,26.1,94,40,0.0,BR,1707258519
116,kristiansund,63.1115,7.732,-6.64,79,62,2.06,NO,1707258519
117,namibe,-15.1961,12.1522,25.38,76,100,3.22,AO,1707258294
118,hawaiian paradise park,19.5933,-154.9731,24.32,78,100,1.54,US,1707258271
119,machico,32.7,-16.7667,20.0,60,20,4.12,PT,1707258520
120,antonio enes,-16.2325,39.9086,25.32,92,100,2.68,MZ,1707258520
121,huarmey,-10.0681,-78.1522,27.14,69,21,4.81,PE,1707258293
122,manzhouli,49.6,117.4333,-22.76,98,79,2.23,CN,1707258520
123,monkey bay,-14.0728,34.9201,25.89,82,100,5.42,MW,1707258520
124,enewetak,11.3474,162.3373,26.57,81,64,7.32,MH,1707258303
125,valle nacional,17.7833,-96.3167,24.04,54,14,2.19,MX,1707258522
126,amasra,41.7463,32.3863,10.93,62,8,5.13,TR,1707258522
127,xiazhen,34.8022,117.1117,-2.83,84,94,2.26,CN,1707258522
128,hadibu,12.65,54.0333,24.43,74,6,3.81,YE,1707258302
129,iskateley,67.6803,53.1512,-27.77,99,97,1.34,RU,1707258091
130,lethem,3.3803,-59.7968,33.74,41,70,3.71,GY,1707258524
131,humaita,-7.5061,-63.0208,26.99,84,100,1.16,BR,1707258525
132,ugoofaaru,5.6667,73.0,27.76,71,41,5.66,MV,1707258525
133,mokhsogollokh,61.4681,128.9203,-30.43,98,100,0.79,RU,1707258289
134,tekkali,18.6167,84.2333,22.16,85,0,1.88,IN,1707258525
135,port alfred,-33.5906,26.891,21.21,95,98,4.47,ZA,1707258291
136,rio gallegos,-51.6226,-69.2181,17.03,48,0,6.69,AR,1707258525
137,kavaratti,10.5669,72.642,27.71,75,5,3.17,IN,1707258526
138,lebu,-37.6167,-73.65,19.45,83,63,1.95,CL,1707258338
139,freetown,8.484,-13.2299,27.84,74,20,4.63,SL,1707258526
140,ellsworth,44.5434,-68.4195,1.46,72,0,2.57,US,1707258530
141,albany,42.6001,-73.9662,1.99,63,6,1.13,US,1707258269
142,invercargill,-46.4,168.35,15.57,76,55,5.81,NZ,1707258022
143,atafu village,-8.5421,-172.5159,28.88,79,100,11.48,TK,1707258285
144,vorgashor,67.5833,63.95,-26.11,99,93,1.52,RU,1707258287
145,acapulco de juarez,16.8634,-99.8901,29.9,58,20,4.12,MX,1707258093
146,gadzhiyevo,69.2551,33.3362,-17.24,98,97,4.63,RU,1707258269
147,lihue,21.9789,-159.3672,25.77,66,20,9.77,US,1707258283
148,bage,-31.3314,-54.1069,29.88,58,0,3.6,BR,1707258531
149,lucapa,-8.4192,20.7447,17.91,98,94,1.28,AO,1707258531
150,constantia,44.1833,28.65,9.38,57,35,5.15,RO,1707258277
151,bantogon,6.5333,124.0333,25.03,81,100,0.9,PH,1707258532
152,cockburn town,21.4612,-71.1419,25.07,75,1,15.11,TC,1707258301
153,arraial do cabo,-22.9661,-42.0278,26.98,83,75,2.06,BR,1707258369
154,mahibadhoo,3.7833,72.9667,27.81,78,100,6.21,MV,1707258532
155,pangody,65.85,74.4859,-19.43,100,78,2.86,RU,1707258532
156,saimbeyli,37.9863,36.0906,4.62,85,15,0.87,TR,1707258532
157,mbandaka,0.0487,18.2603,25.1,59,26,1.62,CD,1707258533
158,punta arenas,-53.15,-70.9167,13.06,62,0,5.66,CL,1707258295
159,flying fish cove,-10.4217,105.6791,22.82,100,73,1.54,CX,1707258337
160,bredasdorp,-34.5322,20.0403,21.19,64,7,6.44,ZA,1707258316
161,praia da vitoria,38.7333,-27.0667,18.14,94,75,8.0,PT,1707258316
162,tiksi,71.6872,128.8694,-25.67,99,98,2.75,RU,1707258276
163,tosontsengel,48.7567,98.2839,-29.0,97,83,0.16,MN,1707258533
164,ilulissat,69.2167,-51.1,-10.99,52,100,9.77,GL,1707258282
165,merizo village,13.2658,144.6691,26.85,86,100,6.71,GU,1707258534
166,baley,51.6,116.6333,-24.9,100,44,1.3,RU,1707258534
167,kourou,5.1552,-52.6478,26.03,91,72,4.49,GF,1707258534
168,port lincoln,-34.7333,135.8667,17.48,72,4,3.83,AU,1707258306
169,bam,29.106,58.357,9.85,19,0,1.88,IR,1707258534
170,iqaluit,63.7506,-68.5145,-17.15,59,40,6.17,CA,1707258534
171,nuuk,64.1835,-51.7216,-9.49,73,100,3.76,GL,1707258298
172,maintirano,-18.0667,44.0167,27.33,82,100,3.12,MG,1707258535
173,wucheng,29.6008,118.175,0.61,98,100,1.49,CN,1707258535
174,mar del plata,-38.0023,-57.5575,23.01,88,100,6.26,AR,1707258535
175,carbondale,37.7273,-89.2168,14.0,45,0,4.12,US,1707258535
176,i-n-salah,27.1935,2.4607,15.72,19,31,1.88,DZ,1707258536
177,nova sintra,14.8667,-24.7167,21.2,72,0,3.87,CV,1707258383
178,aoulef,26.9667,1.0833,16.43,19,26,4.24,DZ,1707258536
179,queenstown,-31.8976,26.8753,19.7,68,85,0.91,ZA,1707258307
180,wewak,-3.5534,143.6268,26.43,86,100,3.05,PG,1707258536
181,xilin hot,43.9667,116.0333,-22.94,98,17,2.51,CN,1707258536
182,nemuro,43.3236,145.575,-7.9,72,50,1.55,JP,1707258364
183,salta,-24.7859,-65.4117,24.33,83,40,4.12,AR,1707258537
184,fortuna,40.5982,-124.1573,11.1,79,100,6.69,US,1707258320
185,mount pearl,47.5166,-52.7813,-0.02,97,100,11.32,CA,1707258330
186,saudarkrokur,65.7461,-19.6394,-2.57,78,76,6.21,IS,1707258537
187,anadyr,64.75,177.4833,-23.72,83,75,7.0,RU,1707258268
188,margate,51.3813,1.3862,11.61,86,100,7.6,GB,1707258397
189,la sarre,48.8002,-79.1996,-0.24,93,100,3.43,CA,1707258543
190,turan,16.0678,108.2208,24.99,88,75,1.54,VN,1707258543
191,funafuti,-8.5243,179.1942,29.0,89,75,6.17,TV,1707258543
192,port elizabeth,-33.918,25.5701,21.29,88,20,8.75,ZA,1707258297
193,page,36.9147,-111.4558,13.95,43,0,9.26,US,1707258544
194,ataq,14.5377,46.8319,16.79,79,1,2.92,YE,1707258544
195,oil city,41.4339,-79.7064,6.77,40,0,0.0,US,1707258544
196,savran,48.1322,30.0825,8.13,67,100,5.53,UA,1707258544
197,codrington,-38.2667,141.9667,15.74,72,46,1.88,AU,1707258340
198,tofol,5.3248,163.0078,28.88,79,75,6.69,FM,1707258307
199,pingliang,35.5392,106.6861,-4.7,78,100,1.13,CN,1707258544
200,crane,31.3974,-102.3501,17.28,36,100,9.12,US,1707258545
201,kingston,17.997,-76.7936,28.53,60,75,8.23,JM,1707258027
202,lerwick,60.1545,-1.1494,1.0,57,99,8.6,GB,1707258320
203,saipan,15.1355,145.701,26.39,61,0,4.63,MP,1707258337
204,mwene-ditu,-7.0,23.45,17.56,95,90,0.51,CD,1707258545
205,bonthe,7.5264,-12.505,27.09,85,0,3.79,SL,1707258545
206,severnoye,56.3491,78.3619,-8.34,93,100,3.58,RU,1707258546
207,dakhla,23.6848,-15.958,20.4,56,100,7.26,EH,1707258546
208,tra vinh,9.9347,106.3453,23.64,94,74,2.49,VN,1707258546
209,cabo san lucas,22.8909,-109.9124,28.12,58,20,5.66,MX,1707257977
210,mokhotlong,-29.2894,29.0675,14.39,56,13,0.89,LS,1707258546
211,susuman,62.7833,148.1667,-33.34,99,99,1.34,RU,1707258350
212,cabedelo,-6.9811,-34.8339,29.37,76,57,5.07,BR,1707258547
213,mata-utu,-13.2816,-176.1745,28.68,80,100,8.03,WF,1707258288
214,tateyama,34.9833,139.8667,5.61,71,100,5.19,JP,1707258547
215,whitehorse,60.7161,-135.0538,-15.57,85,100,3.09,CA,1707258168
216,abu dhabi,24.4667,54.3667,22.19,46,0,4.63,AE,1707258547
217,najran,17.4924,44.1277,16.36,43,51,1.81,SA,1707258547
218,kaoma,-14.7833,24.8,18.81,92,70,1.6,ZM,1707258548
219,rikaze,29.25,88.8833,-5.34,25,0,1.43,CN,1707258393
220,leava,-14.3,-178.1667,27.98,79,99,3.07,WF,1707258279
221,hasaki,35.7333,140.8333,0.16,55,86,6.46,JP,1707258281
222,briviesca,42.5499,-3.3232,4.08,85,42,3.11,ES,1707258548
223,banda aceh,5.5577,95.3222,24.9,88,68,4.51,ID,1707258302
224,flin flon,54.7682,-101.865,-13.09,78,100,2.57,CA,1707258548
225,puerto deseado,-47.7503,-65.8938,23.62,32,100,13.38,AR,1707258315
226,laojunmiao,39.8333,97.7333,-8.37,68,100,0.6,CN,1707258345
227,san luis de la loma,17.2706,-100.8939,28.65,60,3,3.3,MX,1707258325
228,portland,45.5234,-122.6762,11.76,80,75,2.06,US,1707258042
229,nuku'alofa,-21.1333,-175.2,27.19,74,40,4.63,TO,1707258549
230,karratha,-20.7377,116.8463,26.67,70,47,1.2,AU,1707258550
231,san martin de los andes,-40.1604,-71.3486,15.56,96,100,2.26,AR,1707258550
232,poronaysk,49.2167,143.1167,-22.75,96,17,1.49,RU,1707258385
233,sisimiut,66.9395,-53.6735,-9.1,87,100,8.21,GL,1707258336
234,richmond,37.5538,-77.4603,6.66,41,20,5.66,US,1707257887
235,vorkuta,67.5,64.0,-26.22,99,92,1.26,RU,1707258550
236,el granada,37.5027,-122.4694,15.94,64,0,5.14,US,1707258550
237,wanganui,-39.9333,175.05,21.88,54,2,4.68,NZ,1707258266
238,saint-pierre,-21.3393,55.4781,22.82,68,0,2.57,RE,1707258270
239,jamestown,42.097,-79.2353,3.9,54,0,2.06,US,1707258310
240,kisangani,0.5167,25.2,24.68,53,37,0.18,CD,1707258551
241,benguela,-12.5763,13.4055,27.24,75,90,0.43,AO,1707258392
242,udachny,66.4167,112.4,-30.31,74,96,1.88,RU,1707258280
243,afif,23.9065,42.9172,10.65,31,0,5.94,SA,1707258551
244,stanley,54.868,-1.6985,3.77,74,0,2.06,GB,1707258272
245,ialibu,-6.2821,143.9935,15.6,95,100,0.37,PG,1707258552
246,porto uniao,-26.2381,-51.0783,21.58,83,98,0.99,BR,1707258552
247,sao vicente,-23.9631,-46.3919,29.1,51,100,3.58,BR,1707258552
248,northam,51.0333,-4.2167,13.14,98,100,9.27,GB,1707258331
249,colonia,50.9333,6.95,12.2,68,0,9.77,DE,1707258105
250,shelton,41.3165,-73.0932,4.45,53,0,4.63,US,1707258421
251,qamdo,31.1667,97.2333,-8.85,49,97,3.21,CN,1707258553
252,kruisfontein,-34.0033,24.7314,19.7,84,55,6.13,ZA,1707258344
253,dunedin,-45.8742,170.5036,16.56,76,100,4.02,NZ,1707258323
254,egilsstadir,65.2653,-14.3948,-5.05,93,100,1.03,IS,1707258359
255,umba,66.6871,34.3429,-18.05,99,100,2.13,RU,1707258553
256,klyuchi,52.2667,79.1667,-9.33,83,79,5.33,RU,1707258313
257,brezina,33.0989,1.2608,9.55,39,5,3.05,DZ,1707258554
258,usogorsk,63.4106,48.6872,-28.52,100,98,0.55,RU,1707258554
259,kerikeri,-35.2268,173.9474,22.73,80,8,1.48,NZ,1707258357
260,afaahiti,-17.75,-149.2833,27.93,87,99,7.52,PF,1707258272
261,devizes,51.3508,-1.9942,11.53,91,100,8.65,GB,1707258554
262,badiyah,22.45,58.8,19.24,68,71,2.13,OM,1707258554
263,katsuren-haebaru,26.3369,127.8719,18.43,81,100,2.06,JP,1707258555
264,east london,-33.0153,27.9116,23.63,89,94,6.04,ZA,1707258368
265,puerto princesa,9.7392,118.7353,25.99,89,75,3.09,PH,1707258555
266,cova figueira,14.8905,-24.2934,21.62,70,0,3.96,CV,1707258555
267,al kharijah,25.4514,30.5464,12.32,51,0,3.04,EG,1707258348
268,ozark,37.0209,-93.206,17.11,29,56,0.87,US,1707258556
269,massawa,15.6097,39.45,24.26,66,97,4.59,ER,1707258556
270,san andres,12.5847,-81.7006,27.01,65,20,8.23,CO,1707258556
271,aswan,24.0934,32.907,14.38,42,0,3.94,EG,1707258556
272,longyearbyen,78.2186,15.6401,-10.09,73,40,5.14,SJ,1707258292
273,waat,51.1454,6.4958,12.17,79,100,8.75,DE,1707258557
274,vadso,70.0744,29.7487,-9.91,92,75,7.2,NO,1707258267
275,bryne,58.7354,5.6477,0.13,96,75,7.72,NO,1707258557
276,holualoa,19.6228,-155.9522,24.91,73,40,5.14,US,1707258557
277,goure,13.9835,10.2704,20.01,16,100,6.12,NE,1707258296
278,sao jose da coroa grande,-8.8978,-35.1478,27.5,78,74,4.64,BR,1707258557
279,venadillo,4.7193,-74.9292,29.71,61,58,0.34,CO,1707258557
280,pizarro,4.9533,-77.366,28.16,75,49,3.03,CO,1707258558
281,melfort,52.8667,-104.6177,-8.93,92,100,2.57,CA,1707258552
282,jeju city,33.5097,126.5219,4.96,65,75,4.12,KR,1707258558
283,el paujil,1.5701,-75.3286,28.62,71,41,1.29,CO,1707258558
284,bardai,11.65,7.2333,19.41,20,53,4.8,NG,1707258558
285,kongolo,-5.3833,27.0,21.25,98,100,0.92,CD,1707258558
286,voinjama,8.4219,-9.7478,22.57,27,2,0.95,LR,1707258559
287,pacifica,37.6138,-122.4869,15.82,66,40,5.14,US,1707258559
288,chumphon,10.3333,98.8333,19.86,90,22,0.39,TH,1707258559
289,labrador city,52.9463,-66.9114,-13.05,66,75,0.0,CA,1707258375
290,christchurch,-43.5333,172.6333,25.18,64,75,4.12,NZ,1707258403
291,xiaoweizhai,26.1903,107.5125,0.4,90,100,2.48,CN,1707258559
292,enoch,37.7733,-113.0244,6.19,76,100,9.26,US,1707258560
293,al ghayzah,16.2079,52.176,22.7,67,40,1.96,YE,1707258560
294,patacamaya,-17.2333,-67.9167,11.82,60,92,5.16,BO,1707258560
295,gobabis,-22.45,18.9667,24.22,53,60,5.11,NA,1707258287
296,ouarzazat,30.9189,-6.8934,10.16,25,0,1.03,MA,1707258560
297,nelson bay,-32.7167,152.15,20.62,92,100,3.13,AU,1707258560
298,arteche,12.2645,125.4048,24.49,86,30,3.42,PH,1707258311
299,la passe,45.5549,-0.8967,10.55,93,91,4.99,FR,1707258388
300,broken hill,-31.95,141.4333,17.26,42,70,7.7,AU,1707258561
301,quellon,-43.1167,-73.6167,16.82,83,84,6.8,CL,1707258561
302,piti village,13.4626,144.6933,27.03,80,20,3.09,GU,1707258561
303,sabha,27.0377,14.4283,12.04,43,1,1.59,LY,1707258561
304,chopda,21.25,75.3,22.4,48,3,2.12,IN,1707258561
305,dolores,-36.3132,-57.6792,21.8,89,82,5.6,AR,1707258562
306,carauari,-4.8828,-66.8958,26.01,93,100,0.88,BR,1707258562
307,kargopol',61.5071,38.9456,-29.54,100,96,0.67,RU,1707258562
308,gaurnadi,22.9667,90.2333,19.6,78,0,2.79,BD,1707258562
309,pacocha,-17.5833,-71.3333,25.04,80,20,2.77,PE,1707258562
310,laguna,38.421,-121.4238,14.99,71,100,5.14,US,1707258280
311,lakatoro,-16.0999,167.4164,29.2,71,89,0.51,VU,1707258563
312,acarau,-2.8856,-40.12,27.75,80,78,7.7,BR,1707258198
313,st. john's,47.5649,-52.7093,0.44,96,100,14.31,CA,1707258199
314,isla mujeres,21.2311,-86.731,19.03,69,44,9.02,MX,1707258563
315,howrah,22.5892,88.3103,21.0,94,75,2.57,IN,1707258288
316,bahawalnagar,30.5508,73.3908,8.45,49,7,2.44,PK,1707258564
317,tuy hoa,13.0833,109.3,22.65,94,58,0.86,VN,1707258564
318,corumba,-19.0092,-57.6533,28.84,84,75,0.0,BR,1707258564
319,ofunato,39.0717,141.7167,-0.27,67,100,1.77,JP,1707258564
320,taoudenni,22.6783,-3.9836,19.71,12,1,5.47,ML,1707258306
321,ad dabbah,18.05,30.95,15.02,26,95,5.67,SD,1707258565
322,fale old settlement,-9.3852,-171.2468,28.81,79,100,11.42,TK,1707258289
323,as sulayyil,20.4607,45.5779,19.14,49,83,5.29,SA,1707258565
324,bayji,34.9311,43.487,12.01,61,20,2.49,IQ,1707258565
325,tocopilla,-22.092,-70.1979,24.75,72,3,1.75,CL,1707258565
326,talara,-4.5772,-81.2719,30.42,66,0,6.69,PE,1707258565
327,buedu,8.2803,-10.3719,24.07,27,1,0.4,SL,1707258566
328,morehead city,34.7229,-76.726,9.02,67,0,10.8,US,1707258439
329,batticaloa,7.7102,81.6924,26.34,65,93,3.78,LK,1707258566
330,polyarnyy,69.1989,33.4478,-16.47,96,95,4.76,RU,1707258285
331,marsa alam,25.0757,34.8918,17.71,61,0,5.81,EG,1707258566
332,oamaru,-45.0784,170.9801,15.77,86,84,6.41,NZ,1707258566
333,san antonio de pale,-1.4014,5.6325,28.15,76,56,0.98,GQ,1707258300
334,tangalle,6.024,80.7911,22.3,87,44,5.06,LK,1707258384
335,shizuishan,39.2333,106.7694,-7.76,67,15,0.97,CN,1707258567
336,osceola,28.042,-81.1242,18.99,55,32,7.65,US,1707258567
337,al bayda',32.7627,21.7551,9.17,90,0,5.14,LY,1707258567
338,shahrud,36.4182,54.9763,2.44,50,0,1.97,IR,1707258567
339,karpinsk,59.7654,60.0085,-13.55,95,100,3.42,RU,1707258567
340,teguise,29.0605,-13.564,16.12,52,0,4.12,ES,1707258567
341,champerico,14.3,-91.9167,32.3,63,5,4.72,GT,1707258395
342,palu,-0.8917,119.8707,23.93,89,100,1.04,ID,1707258568
343,dryden,49.7833,-92.7503,1.16,93,100,1.03,CA,1707258568
344,cill airne,52.05,-9.5167,6.06,90,100,1.87,IE,1707258568
345,kitimat,54.0524,-128.6534,1.49,80,100,0.45,CA,1707258568
346,jonuta,18.0833,-92.1333,23.21,66,76,2.97,MX,1707258568
347,zouerate,22.7187,-12.4521,19.44,9,12,3.93,MR,1707258569
348,frontera,26.9333,-101.45,25.86,29,0,4.12,MX,1707258569
349,mont belvieu,29.8477,-94.8908,22.83,41,0,1.21,US,1707258569
350,saint-philippe,-21.3585,55.7679,22.77,84,68,5.89,RE,1707258324
351,puerto san jose,13.9256,-90.8244,29.48,50,0,6.07,GT,1707258569
352,magadan,59.5667,150.8,-22.26,80,99,3.34,RU,1707258338
353,bambous,-20.2567,57.4061,26.19,92,61,4.44,MU,1707258569
354,port augusta,-32.5,137.7667,19.6,40,0,4.58,AU,1707258271
355,protaras,35.0125,34.0583,14.44,81,0,1.34,CY,1707258570
356,andergrove,-21.0833,149.1833,30.36,75,22,5.29,AU,1707258570
357,krasnoufimsk,56.6059,57.7669,-0.21,89,100,5.9,RU,1707258570
358,inarajan village,13.2736,144.7484,27.08,86,100,6.65,GU,1707258570
359,bodaybo,57.8506,114.1933,-13.9,97,100,1.43,RU,1707258571
360,bamboo flat,11.7,92.7167,23.99,74,98,4.19,IN,1707258396
361,qal'ah-ye shahr,35.5473,65.5676,-5.43,64,100,5.72,AF,1707258571
362,zanjan,36.6736,48.4787,-0.57,82,9,4.37,IR,1707258571
363,clearwater,27.9659,-82.8001,20.1,65,0,10.73,US,1707258433
364,szczecin,53.4289,14.553,10.23,89,100,6.71,PL,1707258571
365,patra,38.2444,21.7344,14.35,68,5,2.73,GR,1707258572
366,santa rosa,14.3122,121.1114,25.6,84,54,2.83,PH,1707258572
367,la gi,10.6667,107.7833,23.56,89,100,3.93,VN,1707258572
368,kamina,-8.7386,24.9906,16.83,97,100,1.02,CD,1707258572
369,kouango,4.9934,19.9619,27.12,30,29,0.38,CF,1707258572
370,new norfolk,-42.7826,147.0587,16.72,55,94,2.56,AU,1707258572
371,honefoss,60.168,10.2565,-7.16,95,100,2.08,NO,1707258559
372,luganville,-15.5333,167.1667,28.83,76,87,2.07,VU,1707258573
373,vizinga,61.0749,50.1031,-24.08,99,90,2.35,RU,1707258573
374,al jawf,29.5,38.75,10.46,53,5,1.26,SA,1707258573
375,shalqar,47.8333,59.6,-3.33,84,96,10.48,KZ,1707258573
376,ta`u,-14.2336,-169.5144,27.59,87,100,10.95,AS,1707258573
377,trinidad,-14.8333,-64.9,26.99,89,75,1.03,BO,1707258282
378,guanica,17.9716,-66.908,24.74,65,94,5.63,PR,1707258574
379,annaba,36.9,7.7667,10.98,82,0,1.54,DZ,1707258574
380,aykhal,66.0,111.5,-29.81,100,99,2.54,RU,1707258574
381,necochea,-38.5473,-58.7368,28.63,56,58,10.86,AR,1707258574
382,irymple,-34.25,142.1667,18.38,55,0,0.89,AU,1707258574
383,guozhen,34.3659,107.359,-0.45,85,100,0.73,CN,1707258575
384,mikuni,36.2171,136.1519,2.95,76,94,3.43,JP,1707258575
385,reggane,26.7158,0.1714,16.64,20,3,4.08,DZ,1707258575
386,orapa,-21.2833,25.3667,27.92,33,82,1.98,BW,1707258575
387,lata,40.1629,-8.3327,11.07,90,39,1.37,PT,1707258575
388,luanda,-8.8368,13.2343,27.0,89,75,3.09,AO,1707258576
389,bathsheba,13.2167,-59.5167,27.34,89,20,9.26,BB,1707258576
390,shingu,33.7333,135.9833,2.83,77,55,2.6,JP,1707258356
391,east ballina,-28.8667,153.5833,23.78,88,25,7.49,AU,1707258576
392,dawei,14.0833,98.2,18.02,53,4,1.63,MM,1707258576
393,tyukhtet,56.5389,89.3011,-9.56,92,100,2.0,RU,1707258577
394,chulakkurgan,43.765,69.1814,8.09,46,100,13.79,KZ,1707258577
395,westport,41.1415,-73.3579,4.33,63,9,0.89,US,1707258577
396,al qusayr,34.5091,36.5798,9.01,69,0,0.96,SY,1707258577
397,okhotsk,59.3833,143.3,-23.51,83,100,3.54,RU,1707258340
398,glace bay,46.1969,-59.957,0.25,91,100,8.75,CA,1707258577
399,broome,42.2506,-75.833,3.22,66,5,0.89,US,1707258577
400,jianguang,28.1938,115.7836,0.99,100,100,1.6,CN,1707258578
401,weiser,44.251,-116.9693,11.11,71,100,1.86,US,1707258578
402,prince rupert,54.3161,-130.3201,1.05,100,100,1.54,CA,1707258384
403,luderitz,-26.6481,15.1594,19.3,81,57,4.92,NA,1707258284
404,nikolayevsk-on-amure,53.1406,140.73,-23.0,99,95,1.63,RU,1707258578
405,happy valley-goose bay,53.3168,-60.3315,-14.83,72,20,1.54,CA,1707258331
406,nar'yan-mar,67.6713,53.087,-27.72,99,97,1.34,RU,1707258366
407,naze,28.3667,129.4833,13.51,76,100,4.66,JP,1707258579
408,touros,-5.1989,-35.4608,27.57,78,100,5.7,BR,1707258297
409,ribeira brava,32.65,-17.0667,20.0,57,84,2.36,PT,1707258579
410,boli,45.7667,130.5167,-19.71,95,10,1.8,CN,1707258579
411,igarka,67.4667,86.5833,-13.95,95,100,5.26,RU,1707258281
412,tayturka,52.8692,103.4608,-23.29,100,81,0.82,RU,1707258579
413,abalak,58.1286,68.5944,-3.14,91,100,4.78,RU,1707258579
414,axim,4.8699,-2.2405,26.0,83,32,2.89,GH,1707258348
415,canutama,-6.5339,-64.3831,27.05,91,83,1.15,BR,1707258580
416,al jahra',29.3375,47.6581,16.46,41,0,4.26,KW,1707258317
417,abepura,-2.6333,140.5833,24.45,94,75,2.57,ID,1707258580
418,ocean shores,46.9737,-124.1563,10.18,76,0,4.63,US,1707258359
419,metlili chaamba,32.2667,3.6333,11.52,40,0,1.54,DZ,1707258580
420,changyon,38.2508,125.0961,-3.39,85,16,1.92,KP,1707258581
421,gizo,-8.103,156.8419,28.39,80,99,5.46,SB,1707258382
422,yuzhno-kurilsk,44.0306,145.8556,-8.68,81,80,2.2,RU,1707258354
423,altayskoye,51.9533,85.3325,-9.58,81,28,2.85,RU,1707258318
424,dom pedrito,-30.9828,-54.6731,29.76,59,63,3.1,BR,1707258581
425,severoural'sk,60.1533,59.952,-15.01,96,100,3.13,RU,1707258581
426,al bawiti,28.3492,28.8659,12.5,60,0,2.27,EG,1707258581
427,paita,-5.0892,-81.1144,26.96,73,37,6.23,PE,1707258581
428,thunder bay,48.4001,-89.3168,3.99,81,75,2.57,CA,1707258341
429,norrtalje,59.758,18.705,-2.77,76,100,4.26,SE,1707258582
430,sofiyivka,48.0493,33.8746,5.76,86,100,4.43,UA,1707258373
431,bougouni,11.417,-7.479,26.42,13,4,2.66,ML,1707258582
432,pathein,16.7833,94.7333,21.38,66,0,3.03,MM,1707258582
433,olonets,60.9847,32.9698,-23.42,99,24,2.65,RU,1707258582
434,izluchinsk,60.9794,76.9242,0.0,94,100,5.87,RU,1707258583
435,yengema,8.7167,-11.1667,23.92,28,1,1.58,SL,1707258583
436,marka,1.7159,44.7717,26.27,89,94,7.12,SO,1707258583
437,ivdel',60.6911,60.4206,-14.34,96,100,3.13,RU,1707258583
438,phan rang-thap cham,11.5667,108.9833,22.38,88,98,1.29,VN,1707258314
439,kailua-kona,19.6406,-155.9956,26.98,72,40,5.14,US,1707258303
440,brookings,44.3114,-96.7984,9.65,89,70,0.89,US,1707258584
441,kolyvan',55.3053,82.7391,-10.21,91,100,2.75,RU,1707258584
442,sao joao dos patos,-6.495,-43.7022,27.21,55,100,1.83,BR,1707258584
443,chinde,26.8418,88.0763,7.17,73,0,1.61,NP,1707258368
444,yarmouth,41.7057,-70.2286,1.65,85,75,8.05,US,1707258584
445,chabany,50.3414,30.4271,7.2,96,100,7.06,UA,1707258584
446,tibanbang,6.6315,126.1055,25.68,80,100,2.44,PH,1707258585
447,mil'kovo,55.6078,37.7956,-4.78,99,90,2.15,RU,1707258585
448,serdar,38.9764,56.2757,7.07,46,100,2.39,TM,1707258585
449,ghat,24.9647,10.1728,12.8,33,5,2.46,LY,1707258585
450,ancud,-41.8697,-73.8203,16.37,92,100,8.02,CL,1707258585
451,pursat,12.3333,103.6667,23.41,88,38,1.1,KH,1707258585
452,puerto armuelles,8.2833,-82.8667,31.99,65,17,1.34,PA,1707258586
453,jwaneng,-24.6004,24.7303,23.95,22,0,2.97,BW,1707258586
454,targu neamt,47.2,26.3667,12.75,56,84,7.56,RO,1707258586
455,greymouth,-42.4667,171.2,18.88,68,70,1.03,NZ,1707258389
456,corner brook,48.9667,-57.9484,-2.91,83,100,5.02,CA,1707258586
457,pandan,14.0453,124.1694,24.86,85,81,3.99,PH,1707258586
458,coquimbo,-29.9533,-71.3436,20.85,77,0,6.17,CL,1707258268
459,nefteyugansk,61.0998,72.6035,-1.69,98,100,6.71,RU,1707258587
460,uacu cungo,-11.3634,15.1208,18.12,99,100,1.3,AO,1707258587
461,mitha tiwana,32.2486,72.1108,10.19,43,12,2.3,PK,1707258587
462,parry sound,45.3501,-80.033,3.03,65,81,0.99,CA,1707258587
463,nguigmi,14.2495,13.1092,19.54,24,74,6.45,NE,1707258400
464,mount gambier,-37.8333,140.7667,14.67,77,58,0.55,AU,1707258290
465,malvan,16.0667,73.4667,25.31,64,0,4.35,IN,1707258588
466,challapata,-18.9,-66.7667,12.11,60,96,3.05,BO,1707258321
467,mili,6.0815,171.735,27.97,73,65,7.99,MH,1707258588
468,hovd,48.0056,91.6419,-21.39,96,46,0.57,MN,1707258588
469,fukuecho,32.6881,128.8419,8.48,66,47,9.49,JP,1707258588
470,nagato,34.3833,131.2,6.63,88,100,3.4,JP,1707258588
471,meadow lakes,61.6247,-149.6011,-0.38,64,0,1.54,US,1707258588
472,kapshagay,43.8833,77.0833,-4.2,72,36,5.21,KZ,1707258589
473,tulagi,-9.0996,160.1476,28.03,81,98,9.05,SB,1707258589
474,nantucket,41.2835,-70.0995,2.06,80,100,8.23,US,1707258589
475,manjeshvar,12.7,74.8833,24.66,87,3,2.0,IN,1707258589
476,tsevie,6.4261,1.2133,28.49,53,6,1.09,TG,1707258550
477,buala,-8.145,159.5921,28.34,80,83,4.11,SB,1707258589
478,santa ana,33.7456,-117.8678,13.3,91,100,3.09,US,1707258590
479,horta,38.5333,-28.6333,17.23,94,100,11.62,PT,1707258349
480,sandnessjoen,66.0217,12.6316,-5.88,79,75,2.57,NO,1707258590
481,la'ie,21.6477,-157.9253,27.98,67,16,10.31,US,1707258306
482,altay,47.8667,88.1167,-10.93,62,6,3.44,CN,1707258590
483,atbasar,51.8,68.3333,-2.65,84,100,8.37,KZ,1707258590
484,port saint john's,-31.6229,29.5448,22.97,91,32,6.47,ZA,1707258290
485,galesong,-5.3166,119.3661,24.01,83,99,1.81,ID,1707258590
486,groningen,53.25,6.75,5.07,87,100,6.17,NL,1707258377
487,sorada,19.75,84.4333,22.46,73,0,1.07,IN,1707258591
488,islamkot,24.6997,70.177,20.67,69,100,3.89,PK,1707258591
489,chagoda,59.164,35.3285,-20.14,100,89,1.87,RU,1707258591
490,yenisarbademli,37.7078,31.3864,7.96,54,11,2.63,TR,1707258591
491,t'q'ibuli,42.3512,42.9987,6.51,98,100,6.6,GE,1707258592
492,sanctuary point,-35.1114,150.629,20.42,65,31,5.28,AU,1707258592
493,moyamba,8.1667,-12.4333,25.24,85,0,1.88,SL,1707258592
494,neryungri,56.6709,124.6491,-14.66,97,100,1.79,RU,1707258592
495,ravar,31.2656,56.8055,7.61,19,0,3.0,IR,1707258592
496,morozovsk,48.3539,41.8261,-2.73,88,47,5.33,RU,1707258592
497,biryusinsk,55.9634,97.8235,-18.79,100,68,1.19,RU,1707258592
498,istgah-e rah ahan-e garmsar,35.2346,52.3094,6.8,50,0,4.32,IR,1707258593
499,canals,38.9625,-0.5844,15.12,52,67,0.89,ES,1707258593
500,ares,-6.1944,-35.1603,28.05,79,81,4.44,BR,1707258334
501,kemijarvi,66.7131,27.4306,-24.79,100,100,1.31,FI,1707258593
502,selkirk,50.1436,-96.8845,2.31,97,51,1.48,CA,1707258593
503,the pas,53.8251,-101.2541,-10.99,85,100,2.57,CA,1707258373
504,miajadas,39.1513,-5.9084,9.11,89,7,1.21,ES,1707258593
505,tsengel,49.4783,100.8894,-22.31,92,96,1.96,MN,1707258594
506,lexington,37.9887,-84.4777,10.69,48,0,2.06,US,1707258343
507,soio,-6.1349,12.3689,25.61,86,99,3.08,AO,1707258594
508,el paso,31.8001,-106.2005,16.5,25,100,3.09,US,1707258214
509,initao,8.4997,124.3039,25.03,84,78,1.48,PH,1707258594
510,yeppoon,-23.1333,150.7333,29.88,79,56,6.21,AU,1707258595
511,cidade velha,14.9167,-23.6167,24.26,53,0,6.17,CV,1707258595
512,cambria,35.5641,-121.0808,15.03,78,88,3.58,US,1707258595
513,joshimath,30.5667,79.5667,-1.0,41,12,3.91,IN,1707258595
514,princeville,45.7668,-61.2985,0.18,89,40,3.09,CA,1707258595
515,alofi,-19.0595,-169.9187,28.94,65,75,4.63,NU,1707258595
516,bubaque,11.2833,-15.8333,26.53,76,0,6.94,GW,1707258595
517,chibougamau,49.9168,-74.3659,-4.21,63,75,3.09,CA,1707258596
518,tidjikja,18.5564,-11.4271,22.81,10,8,5.53,MR,1707258294
519,olutanga,7.3106,122.8464,26.22,79,96,2.57,PH,1707258596
520,tobol'sk,58.2,68.2667,-3.0,91,100,4.47,RU,1707258596
521,durban,-29.8579,31.0292,23.51,87,3,4.99,ZA,1707258596
522,valparaiso,-33.0393,-71.6273,24.13,63,0,4.63,CL,1707258121
523,geraldton,-28.7667,114.6,25.23,23,0,8.75,AU,1707258285
524,angra do heroismo,38.65,-27.2167,18.34,97,75,5.81,PT,1707258351
525,brady,31.1352,-99.3351,20.85,36,0,2.57,US,1707258597
526,saint-francois,46.4154,3.9054,7.03,88,100,2.57,FR,1707258597
527,alliston,44.1501,-79.8663,3.18,44,48,1.03,CA,1707258597
528,nueva gerona,21.8833,-82.8,22.78,51,4,9.92,CU,1707258597
529,yaren,-0.5472,166.916,28.98,74,100,6.12,NR,1707258597
530,puerto lempira,15.2667,-83.7667,28.08,74,20,4.63,HN,1707258598
531,george,-33.963,22.4617,20.75,94,100,1.03,ZA,1707258497
532,yabelo,4.8833,38.0833,18.98,40,14,7.12,ET,1707258598
533,edgewater,28.9889,-80.9023,17.29,67,0,10.29,US,1707258598
534,filey,54.21,-0.2892,5.99,75,100,0.45,GB,1707258598
535,port blair,11.6667,92.75,23.98,74,100,4.35,IN,1707258598
536,alesund,62.4723,6.1549,-4.39,88,0,3.09,NO,1707258550
537,midvagur,62.0511,-7.1939,-1.54,69,75,4.63,FO,1707258599
538,kargasok,59.0556,80.8572,-6.69,97,79,3.13,RU,1707258599
539,nyuzen,36.9333,137.5,1.96,88,100,4.19,JP,1707258599
540,mufulira,-12.5498,28.2407,16.64,99,33,1.79,ZM,1707258599
541,st. paul,44.9444,-93.0933,13.31,58,0,5.66,US,1707258351
542,porto novo,6.4965,2.6036,27.9,65,11,1.37,BJ,1707258599
543,byron bay,-28.65,153.6167,23.73,86,5,6.13,AU,1707258600
544,baiti,13.745,-14.7482,29.92,10,0,4.45,SN,1707258605
545,kolobrzeg,54.1757,15.5834,6.09,88,100,14.46,PL,1707258606
546,southlake,32.9412,-97.1342,20.35,34,20,2.57,US,1707258606
547,guerrero negro,27.9769,-114.0611,15.83,77,100,4.96,MX,1707258382
548,auki,-8.7676,160.7034,27.41,87,98,5.43,SB,1707258606
549,morondava,-20.2833,44.2833,26.6,81,71,2.82,MG,1707258606
550,sao felix do xingu,-6.6447,-51.995,24.41,92,69,1.16,BR,1707258608
551,ghanzi,-21.5667,21.7833,26.3,45,85,4.95,BW,1707258608
552,nyurba,63.2842,118.3319,-28.64,99,100,1.02,RU,1707258372
553,kirakira,-10.4544,161.9205,28.68,76,56,3.59,SB,1707258315
554,san fernando,15.0286,120.6898,22.85,87,3,1.75,PH,1707258608
555,kochenevo,55.0218,82.202,-10.34,90,94,3.31,RU,1707258609
556,monteagudo,-19.8167,-63.9833,19.03,97,83,1.61,BO,1707258609
557,mhamid,29.82,-5.72,12.86,29,93,0.99,MA,1707258609
558,dauphin,51.1494,-100.0502,1.08,86,100,2.57,CA,1707258610
559,boa vista,2.8197,-60.6733,31.99,55,75,2.57,BR,1707258610
560,strezhevoy,60.7333,77.5889,-0.02,90,99,6.26,RU,1707258610
561,novyy urgal,51.0736,132.5642,-32.42,100,100,0.56,RU,1707258610
562,qujing,25.4833,103.7833,8.78,60,29,5.49,CN,1707258610
563,timon,-5.0942,-42.8367,31.88,62,0,3.09,BR,1707258611
564,kohima,25.6667,94.1167,7.02,96,22,1.07,IN,1707258611
565,plastun,44.7561,136.2939,-14.38,77,3,3.74,RU,1707258611
566,iwanai,42.9744,140.5089,-2.61,86,100,1.4,JP,1707258611
567,arish,31.1316,33.7984,14.77,75,0,1.33,EG,1707258612
568,yudong,29.385,106.5194,8.61,97,100,1.49,CN,1707258612
569,kayes,14.0,-11.0,28.68,9,0,4.38,ML,1707258612
570,panama city beach,30.1766,-85.8055,20.07,39,0,4.12,US,1707258481
571,muynoq,43.7683,59.0214,1.47,67,82,9.72,UZ,1707258613
572,bethlehem,-1.4558,-48.5044,25.02,94,75,2.57,BR,1707258319
